{
  "countries": [
    {"name":"United States","code":"US","lat":39.8,"lon":-98.6,"population":331000000,"gdp_billions":25460,"area_km2":9833520,"continent":"NorthAmerica"},
    {"name":"China","code":"CN","lat":35.9,"lon":104.2,"population":1412000000,"gdp_billions":17963,"area_km2":9596961,"continent":"Asia"},
    {"name":"Japan","code":"JP","lat":36.2,"lon":138.3,"population":125700000,"gdp_billions":4231,"area_km2":377975,"continent":"Asia"},
    {"name":"Germany","code":"DE","lat":51.2,"lon":10.5,"population":83200000,"gdp_billions":4072,"area_km2":357022,"continent":"Europe"},
    {"name":"India","code":"IN","lat":20.6,"lon":79.0,"population":1408000000,"gdp_billions":3385,"area_km2":3287263,"continent":"Asia"},
    {"name":"United Kingdom","code":"GB","lat":55.4,"lon":-3.4,"population":67300000,"gdp_billions":3070,"area_km2":243610,"continent":"Europe"},
    {"name":"France","code":"FR","lat":46.2,"lon":2.2,"population":67750000,"gdp_billions":2780,"area_km2":640679,"continent":"Europe"},
    {"name":"Canada","code":"CA","lat":56.1,"lon":-106.3,"population":38250000,"gdp_billions":2139,"area_km2":9984670,"continent":"NorthAmerica"},
    {"name":"Italy","code":"IT","lat":41.9,"lon":12.6,"population":59110000,"gdp_billions":2010,"area_km2":301340,"continent":"Europe"},
    {"name":"Brazil","code":"BR","lat":-14.2,"lon":-51.9,"population":214300000,"gdp_billions":1920,"area_km2":8515767,"continent":"SouthAmerica"},
    {"name":"Russia","code":"RU","lat":61.5,"lon":105.3,"population":143400000,"gdp_billions":1775,"area_km2":17098246,"continent":"Europe"},
    {"name":"Australia","code":"AU","lat":-25.3,"lon":133.8,"population":25690000,"gdp_billions":1675,"area_km2":7692024,"continent":"Oceania"},
    {"name":"South Korea","code":"KR","lat":35.9,"lon":128.0,"population":51780000,"gdp_billions":1665,"area_km2":100210,"continent":"Asia"},
    {"name":"Mexico","code":"MX","lat":23.6,"lon":-102.6,"population":128900000,"gdp_billions":1414,"area_km2":1964375,"continent":"NorthAmerica"},
    {"name":"Spain","code":"ES","lat":40.5,"lon":-3.7,"population":47420000,"gdp_billions":1398,"area_km2":505990,"continent":"Europe"},
    {"name":"Indonesia","code":"ID","lat":-0.8,"lon":113.9,"population":273500000,"gdp_billions":1319,"area_km2":1904569,"continent":"Asia"},
    {"name":"Saudi Arabia","code":"SA","lat":23.9,"lon":45.1,"population":35340000,"gdp_billions":1108,"area_km2":2149690,"continent":"Asia"},
    {"name":"Netherlands","code":"NL","lat":52.1,"lon":5.3,"population":17440000,"gdp_billions":1009,"area_km2":41543,"continent":"Europe"},
    {"name":"Turkey","code":"TR","lat":38.9,"lon":35.2,"population":84340000,"gdp_billions":906,"area_km2":783562,"continent":"Asia"},
    {"name":"Switzerland","code":"CH","lat":46.8,"lon":8.2,"population":8637000,"gdp_billions":808,"area_km2":41285,"continent":"Europe"},
    {"name":"Poland","code":"PL","lat":51.9,"lon":19.1,"population":37950000,"gdp_billions":688,"area_km2":312696,"continent":"Europe"},
    {"name":"Sweden","code":"SE","lat":60.1,"lon":18.6,"population":10350000,"gdp_billions":586,"area_km2":450295,"continent":"Europe"},
    {"name":"Belgium","code":"BE","lat":50.5,"lon":4.5,"population":11520000,"gdp_billions":578,"area_km2":30528,"continent":"Europe"},
    {"name":"Argentina","code":"AR","lat":-38.4,"lon":-63.6,"population":45810000,"gdp_billions":632,"area_km2":2780400,"continent":"SouthAmerica"},
    {"name":"Norway","code":"NO","lat":60.5,"lon":8.5,"population":5379000,"gdp_billions":579,"area_km2":385207,"continent":"Europe"},
    {"name":"Nigeria","code":"NG","lat":9.1,"lon":8.7,"population":211400000,"gdp_billions":440,"area_km2":923768,"continent":"Africa"},
    {"name":"Egypt","code":"EG","lat":26.8,"lon":30.8,"population":102300000,"gdp_billions":477,"area_km2":1002450,"continent":"Africa"},
    {"name":"South Africa","code":"ZA","lat":-30.6,"lon":22.9,"population":59390000,"gdp_billions":405,"area_km2":1219090,"continent":"Africa"},
    {"name":"Thailand","code":"TH","lat":15.9,"lon":100.9,"population":69800000,"gdp_billions":495,"area_km2":513120,"continent":"Asia"},
    {"name":"Singapore","code":"SG","lat":1.4,"lon":103.8,"population":5454000,"gdp_billions":397,"area_km2":728,"continent":"Asia"},
    {"name":"Malaysia","code":"MY","lat":4.2,"lon":101.9,"population":32370000,"gdp_billions":407,"area_km2":330803,"continent":"Asia"},
    {"name":"Philippines","code":"PH","lat":12.9,"lon":121.8,"population":109580000,"gdp_billions":404,"area_km2":300000,"continent":"Asia"},
    {"name":"Colombia","code":"CO","lat":4.6,"lon":-74.3,"population":51270000,"gdp_billions":343,"area_km2":1141748,"continent":"SouthAmerica"},
    {"name":"Chile","code":"CL","lat":-35.7,"lon":-71.5,"population":19120000,"gdp_billions":301,"area_km2":756102,"continent":"SouthAmerica"},
    {"name":"Vietnam","code":"VN","lat":14.1,"lon":108.3,"population":97340000,"gdp_billions":409,"area_km2":331212,"continent":"Asia"},
    {"name":"Pakistan","code":"PK","lat":30.4,"lon":69.3,"population":220890000,"gdp_billions":348,"area_km2":881913,"continent":"Asia"},
    {"name":"Bangladesh","code":"BD","lat":23.7,"lon":90.4,"population":164690000,"gdp_billions":416,"area_km2":147570,"continent":"Asia"},
    {"name":"Kenya","code":"KE","lat":-0.02,"lon":37.9,"population":53770000,"gdp_billions":113,"area_km2":580367,"continent":"Africa"},
    {"name":"Peru","code":"PE","lat":-9.2,"lon":-75.0,"population":32970000,"gdp_billions":242,"area_km2":1285216,"continent":"SouthAmerica"},
    {"name":"Ukraine","code":"UA","lat":48.4,"lon":31.2,"population":44130000,"gdp_billions":161,"area_km2":603550,"continent":"Europe"},
    {"name":"New Zealand","code":"NZ","lat":-40.9,"lon":174.9,"population":5084000,"gdp_billions":247,"area_km2":270467,"continent":"Oceania"},
    {"name":"Iran","code":"IR","lat":32.4,"lon":53.7,"population":83990000,"gdp_billions":368,"area_km2":1648195,"continent":"Asia"},
    {"name":"Ethiopia","code":"ET","lat":9.1,"lon":40.5,"population":115000000,"gdp_billions":126,"area_km2":1104300,"continent":"Africa"},
    {"name":"Tanzania","code":"TZ","lat":-6.4,"lon":34.9,"population":61490000,"gdp_billions":75,"area_km2":945087,"continent":"Africa"},
    {"name":"Morocco","code":"MA","lat":31.8,"lon":-7.1,"population":36910000,"gdp_billions":134,"area_km2":446550,"continent":"Africa"},
    {"name":"Ghana","code":"GH","lat":7.9,"lon":-1.0,"population":31070000,"gdp_billions":77,"area_km2":238533,"continent":"Africa"},
    {"name":"DR Congo","code":"CD","lat":-4.0,"lon":21.8,"population":89560000,"gdp_billions":55,"area_km2":2344858,"continent":"Africa"},
    {"name":"Algeria","code":"DZ","lat":28.0,"lon":1.7,"population":43850000,"gdp_billions":187,"area_km2":2381741,"continent":"Africa"}
  ],
  "cities": [
    {"name":"Tokyo","country":"JP","lat":35.68,"lon":139.69,"population":37400000},
    {"name":"Delhi","country":"IN","lat":28.61,"lon":77.21,"population":32940000},
    {"name":"Shanghai","country":"CN","lat":31.23,"lon":121.47,"population":28500000},
    {"name":"Sao Paulo","country":"BR","lat":-23.55,"lon":-46.63,"population":22430000},
    {"name":"Mexico City","country":"MX","lat":19.43,"lon":-99.13,"population":21920000},
    {"name":"Cairo","country":"EG","lat":30.04,"lon":31.24,"population":21750000},
    {"name":"Mumbai","country":"IN","lat":19.08,"lon":72.88,"population":21670000},
    {"name":"Beijing","country":"CN","lat":39.90,"lon":116.41,"population":21540000},
    {"name":"Dhaka","country":"BD","lat":23.81,"lon":90.41,"population":22480000},
    {"name":"Osaka","country":"JP","lat":34.69,"lon":135.50,"population":19110000},
    {"name":"New York","country":"US","lat":40.71,"lon":-74.01,"population":18820000},
    {"name":"Karachi","country":"PK","lat":24.86,"lon":67.01,"population":16840000},
    {"name":"Buenos Aires","country":"AR","lat":-34.60,"lon":-58.38,"population":15370000},
    {"name":"Istanbul","country":"TR","lat":41.01,"lon":28.98,"population":15190000},
    {"name":"Lagos","country":"NG","lat":6.52,"lon":3.38,"population":15390000},
    {"name":"Kinshasa","country":"CD","lat":-4.44,"lon":15.27,"population":14970000},
    {"name":"Manila","country":"PH","lat":14.60,"lon":120.98,"population":14400000},
    {"name":"Guangzhou","country":"CN","lat":23.13,"lon":113.26,"population":13960000},
    {"name":"Moscow","country":"RU","lat":55.76,"lon":37.62,"population":12540000},
    {"name":"London","country":"GB","lat":51.51,"lon":-0.13,"population":9540000},
    {"name":"Shenzhen","country":"CN","lat":22.54,"lon":114.06,"population":12590000},
    {"name":"Los Angeles","country":"US","lat":34.05,"lon":-118.24,"population":12490000},
    {"name":"Paris","country":"FR","lat":48.86,"lon":2.35,"population":11020000},
    {"name":"Bangkok","country":"TH","lat":13.76,"lon":100.50,"population":10720000},
    {"name":"Jakarta","country":"ID","lat":-6.21,"lon":106.85,"population":10770000},
    {"name":"Lima","country":"PE","lat":-12.05,"lon":-77.04,"population":10720000},
    {"name":"Seoul","country":"KR","lat":37.57,"lon":126.98,"population":9970000},
    {"name":"Nairobi","country":"KE","lat":-1.29,"lon":36.82,"population":5120000},
    {"name":"Bogota","country":"CO","lat":4.71,"lon":-74.07,"population":11340000},
    {"name":"Tehran","country":"IR","lat":35.69,"lon":51.39,"population":9130000},
    {"name":"Ho Chi Minh City","country":"VN","lat":10.82,"lon":106.63,"population":9050000},
    {"name":"Chicago","country":"US","lat":41.88,"lon":-87.63,"population":8600000},
    {"name":"Bangalore","country":"IN","lat":12.97,"lon":77.59,"population":12330000},
    {"name":"Riyadh","country":"SA","lat":24.71,"lon":46.68,"population":7540000},
    {"name":"Toronto","country":"CA","lat":43.65,"lon":-79.38,"population":6200000},
    {"name":"Santiago","country":"CL","lat":-33.45,"lon":-70.67,"population":6770000},
    {"name":"Singapore","country":"SG","lat":1.35,"lon":103.82,"population":5454000},
    {"name":"Sydney","country":"AU","lat":-33.87,"lon":151.21,"population":5310000},
    {"name":"Berlin","country":"DE","lat":52.52,"lon":13.40,"population":3570000},
    {"name":"Madrid","country":"ES","lat":40.42,"lon":-3.70,"population":6640000},
    {"name":"Houston","country":"US","lat":29.76,"lon":-95.37,"population":6370000},
    {"name":"Kuala Lumpur","country":"MY","lat":3.14,"lon":101.69,"population":7780000},
    {"name":"Johannesburg","country":"ZA","lat":-26.20,"lon":28.05,"population":5780000},
    {"name":"Amsterdam","country":"NL","lat":52.37,"lon":4.90,"population":1150000},
    {"name":"Zurich","country":"CH","lat":47.38,"lon":8.54,"population":415000},
    {"name":"Warsaw","country":"PL","lat":52.23,"lon":21.01,"population":1790000},
    {"name":"Stockholm","country":"SE","lat":59.33,"lon":18.07,"population":1610000},
    {"name":"Brussels","country":"BE","lat":50.85,"lon":4.35,"population":1210000},
    {"name":"Melbourne","country":"AU","lat":-37.81,"lon":144.96,"population":5080000},
    {"name":"Rome","country":"IT","lat":41.90,"lon":12.50,"population":4340000},
    {"name":"Milan","country":"IT","lat":45.46,"lon":9.19,"population":3140000},
    {"name":"Addis Ababa","country":"ET","lat":9.02,"lon":38.75,"population":3600000},
    {"name":"Casablanca","country":"MA","lat":33.59,"lon":-7.59,"population":3710000},
    {"name":"Accra","country":"GH","lat":5.56,"lon":-0.19,"population":2560000},
    {"name":"Dar es Salaam","country":"TZ","lat":-6.79,"lon":39.28,"population":6700000},
    {"name":"Algiers","country":"DZ","lat":36.74,"lon":3.06,"population":2850000},
    {"name":"Kyiv","country":"UA","lat":50.45,"lon":30.52,"population":2960000},
    {"name":"Oslo","country":"NO","lat":59.91,"lon":10.75,"population":690000},
    {"name":"Auckland","country":"NZ","lat":-36.85,"lon":174.76,"population":1660000},
    {"name":"San Francisco","country":"US","lat":37.77,"lon":-122.42,"population":3320000},
    {"name":"Dallas","country":"US","lat":32.78,"lon":-96.80,"population":5220000},
    {"name":"Washington DC","country":"US","lat":38.91,"lon":-77.04,"population":5380000},
    {"name":"Miami","country":"US","lat":25.76,"lon":-80.19,"population":6170000},
    {"name":"Vancouver","country":"CA","lat":49.28,"lon":-123.12,"population":2580000},
    {"name":"Montreal","country":"CA","lat":45.50,"lon":-73.57,"population":4250000},
    {"name":"Frankfurt","country":"DE","lat":50.11,"lon":8.68,"population":750000},
    {"name":"Munich","country":"DE","lat":48.14,"lon":11.58,"population":1470000},
    {"name":"Barcelona","country":"ES","lat":41.39,"lon":2.17,"population":5575000},
    {"name":"Lahore","country":"PK","lat":31.55,"lon":74.35,"population":13540000},
    {"name":"Hanoi","country":"VN","lat":21.03,"lon":105.85,"population":8050000},
    {"name":"Cape Town","country":"ZA","lat":-33.93,"lon":18.42,"population":4620000}
  ]
}
